[
    {
        "name": "Space Needle",
        "address": "400 Broad St, Seattle, WA 98109",
        "type": "Sightseeing",
        "cost": "37",
        "hours": "Daily: 10:00AM - 8:00PM",
        "duration": "120",
        "url": "https://www.spaceneedle.com",
        "imgUrl": "https://bloximages.newyork1.vip.townnews.com/yakimaherald.com/content/tncms/assets/v3/editorial/c/18/c18c7926-1049-11e9-9dd5-e7559721663f/5c2f9dc9b6c37.image.jpg?resize=1200%2C900",
        "user": "Lucas",
        "done": true
    },
    {
        "name": "The Museum Of Pop Culture",
        "address": "325 5th Avenue N, Seattle, WA 98109",
        "type": "Arts & Culture",
        "hours": "Daily: 10:00AM - 5:00PM",
        "cost": "28",
        "duration": "120",
        "url": "https://www.mopop.org",
        "imgUrl": "https://i.pinimg.com/originals/7a/4f/10/7a4f10f340b555834f14e342bbc56343.jpg",
        "user": "Bonnie",
        "done": false
    },
    {
        "name": "Space Needle",
        "address": "400 Broad St, Seattle, WA 98109",
        "type": "Sightseeing",
        "cost": "37",
        "hours": "Daily: 10:00AM - 8:00PM",
        "duration": "120",
        "url": "https://www.spaceneedle.com",
        "imgUrl": "https://bloximages.newyork1.vip.townnews.com/yakimaherald.com/content/tncms/assets/v3/editorial/c/18/c18c7926-1049-11e9-9dd5-e7559721663f/5c2f9dc9b6c37.image.jpg?resize=1200%2C900",
        "user": "Lucas",
        "done": true
    },
    {
        "name": "The Museum Of Pop Culture",
        "address": "325 5th Avenue N, Seattle, WA 98109",
        "type": "Arts & Culture",
        "hours": "Daily: 10:00AM - 5:00PM",
        "cost": "28",
        "duration": "120",
        "url": "https://www.mopop.org",
        "imgUrl": "https://i.pinimg.com/originals/7a/4f/10/7a4f10f340b555834f14e342bbc56343.jpg",
        "user": "Bonnie",
        "done": false
    },
    {
        "name": "Space Needle",
        "address": "400 Broad St, Seattle, WA 98109",
        "type": "Sightseeing",
        "cost": "37",
        "hours": "Daily: 10:00AM - 8:00PM",
        "duration": "120",
        "url": "https://www.spaceneedle.com",
        "imgUrl": "https://bloximages.newyork1.vip.townnews.com/yakimaherald.com/content/tncms/assets/v3/editorial/c/18/c18c7926-1049-11e9-9dd5-e7559721663f/5c2f9dc9b6c37.image.jpg?resize=1200%2C900",
        "user": "Lucas",
        "done": true
    },
    {
        "name": "The Museum Of Pop Culture",
        "address": "325 5th Avenue N, Seattle, WA 98109",
        "type": "Arts & Culture",
        "hours": "Daily: 10:00AM - 5:00PM",
        "cost": "28",
        "duration": "120",
        "url": "https://www.mopop.org",
        "imgUrl": "https://i.pinimg.com/originals/7a/4f/10/7a4f10f340b555834f14e342bbc56343.jpg",
        "user": "Bonnie",
        "done": false
    }
]
